[
  {
    "city": "Auckland", 
    "lat": "-36.8406", 
    "lng": "174.7400", 
    "country": "New Zealand", 
    "iso2": "NZ", 
    "admin_name": "Auckland", 
    "capital": "admin", 
    "population": "1346091", 
    "population_proper": "1346091"
  }, 
  {
    "city": "Christchurch", 
    "lat": "-43.5310", 
    "lng": "172.6365", 
    "country": "New Zealand", 
    "iso2": "NZ", 
    "admin_name": "Canterbury", 
    "capital": "admin", 
    "population": "383200", 
    "population_proper": "383200"
  }, 
  {
    "city": "Manukau City", 
    "lat": "-37.0000", 
    "lng": "174.8850", 
    "country": "New Zealand", 
    "iso2": "NZ", 
    "admin_name": "Auckland", 
    "capital": "", 
    "population": "375600", 
    "population_proper": "375600"
  }, 
  {
    "city": "Wellington", 
    "lat": "-41.2889", 
    "lng": "174.7772", 
    "country": "New Zealand", 
    "iso2": "NZ", 
    "admin_name": "Wellington", 
    "capital": "primary", 
    "population": "216200", 
    "population_proper": "216200"
  }, 
  {
    "city": "Northcote", 
    "lat": "-36.8019", 
    "lng": "174.7494", 
    "country": "New Zealand", 
    "iso2": "NZ", 
    "admin_name": "Auckland", 
    "capital": "", 
    "population": "205605", 
    "population_proper": "205605"
  }, 
  {
    "city": "Hamilton", 
    "lat": "-37.7833", 
    "lng": "175.2833", 
    "country": "New Zealand", 
    "iso2": "NZ", 
    "admin_name": "Waikato", 
    "capital": "admin", 
    "population": "176500", 
    "population_proper": "176500"
  }, 
  {
    "city": "Tauranga", 
    "lat": "-37.6833", 
    "lng": "176.1667", 
    "country": "New Zealand", 
    "iso2": "NZ", 
    "admin_name": "Bay of Plenty", 
    "capital": "", 
    "population": "151300", 
    "population_proper": "151300"
  }, 
  {
    "city": "Lower Hutt", 
    "lat": "-41.2167", 
    "lng": "174.9167", 
    "country": "New Zealand", 
    "iso2": "NZ", 
    "admin_name": "Wellington", 
    "capital": "", 
    "population": "103400", 
    "population_proper": "103400"
  }, 
  {
    "city": "Dunedin", 
    "lat": "-45.8742", 
    "lng": "170.5036", 
    "country": "New Zealand", 
    "iso2": "NZ", 
    "admin_name": "Otago", 
    "capital": "admin", 
    "population": "99885", 
    "population_proper": "99885"
  }, 
  {
    "city": "Palmerston North", 
    "lat": "-40.3550", 
    "lng": "175.6117", 
    "country": "New Zealand", 
    "iso2": "NZ", 
    "admin_name": "Manawatu-Wanganui", 
    "capital": "admin", 
    "population": "76236", 
    "population_proper": "76236"
  }, 
  {
    "city": "Napier", 
    "lat": "-39.4903", 
    "lng": "176.9178", 
    "country": "New Zealand", 
    "iso2": "NZ", 
    "admin_name": "Hawke’s Bay", 
    "capital": "admin", 
    "population": "62241", 
    "population_proper": "62241"
  }, 
  {
    "city": "New Plymouth", 
    "lat": "-39.0578", 
    "lng": "174.0742", 
    "country": "New Zealand", 
    "iso2": "NZ", 
    "admin_name": "Taranaki", 
    "capital": "", 
    "population": "57600", 
    "population_proper": "57600"
  }, 
  {
    "city": "Porirua", 
    "lat": "-41.1333", 
    "lng": "174.8500", 
    "country": "New Zealand", 
    "iso2": "NZ", 
    "admin_name": "Wellington", 
    "capital": "", 
    "population": "55218", 
    "population_proper": "55218"
  }, 
  {
    "city": "Rotorua", 
    "lat": "-38.1378", 
    "lng": "176.2514", 
    "country": "New Zealand", 
    "iso2": "NZ", 
    "admin_name": "Bay of Plenty", 
    "capital": "", 
    "population": "54204", 
    "population_proper": "54204"
  }, 
  {
    "city": "Whangarei", 
    "lat": "-35.7250", 
    "lng": "174.3236", 
    "country": "New Zealand", 
    "iso2": "NZ", 
    "admin_name": "Northland", 
    "capital": "admin", 
    "population": "50784", 
    "population_proper": "50784"
  }, 
  {
    "city": "Invercargill", 
    "lat": "-46.4131", 
    "lng": "168.3475", 
    "country": "New Zealand", 
    "iso2": "NZ", 
    "admin_name": "Southland", 
    "capital": "admin", 
    "population": "47625", 
    "population_proper": "47625"
  }, 
  {
    "city": "Nelson", 
    "lat": "-41.2708", 
    "lng": "173.2839", 
    "country": "New Zealand", 
    "iso2": "NZ", 
    "admin_name": "Nelson", 
    "capital": "admin", 
    "population": "46437", 
    "population_proper": "46437"
  }, 
  {
    "city": "Upper Hutt", 
    "lat": "-41.1333", 
    "lng": "175.0500", 
    "country": "New Zealand", 
    "iso2": "NZ", 
    "admin_name": "Wellington", 
    "capital": "", 
    "population": "41000", 
    "population_proper": "41000"
  }, 
  {
    "city": "Gisborne", 
    "lat": "-38.6625", 
    "lng": "178.0178", 
    "country": "New Zealand", 
    "iso2": "NZ", 
    "admin_name": "Gisborne", 
    "capital": "admin", 
    "population": "34527", 
    "population_proper": "34527"
  }, 
  {
    "city": "Paraparaumu", 
    "lat": "-40.9144", 
    "lng": "175.0056", 
    "country": "New Zealand", 
    "iso2": "NZ", 
    "admin_name": "Wellington", 
    "capital": "", 
    "population": "28701", 
    "population_proper": "28701"
  }, 
  {
    "city": "Timaru", 
    "lat": "-44.3931", 
    "lng": "171.2508", 
    "country": "New Zealand", 
    "iso2": "NZ", 
    "admin_name": "Canterbury", 
    "capital": "", 
    "population": "27501", 
    "population_proper": "27501"
  }, 
  {
    "city": "Blenheim", 
    "lat": "-41.5140", 
    "lng": "173.9600", 
    "country": "New Zealand", 
    "iso2": "NZ", 
    "admin_name": "Marlborough", 
    "capital": "admin", 
    "population": "26400", 
    "population_proper": "26400"
  }, 
  {
    "city": "Taupo", 
    "lat": "-38.6875", 
    "lng": "176.0694", 
    "country": "New Zealand", 
    "iso2": "NZ", 
    "admin_name": "Waikato", 
    "capital": "", 
    "population": "23622", 
    "population_proper": "23622"
  }, 
  {
    "city": "Cambridge", 
    "lat": "-37.8833", 
    "lng": "175.4667", 
    "country": "New Zealand", 
    "iso2": "NZ", 
    "admin_name": "Waikato", 
    "capital": "", 
    "population": "18651", 
    "population_proper": "18651"
  }, 
  {
    "city": "Feilding", 
    "lat": "-40.2167", 
    "lng": "175.5667", 
    "country": "New Zealand", 
    "iso2": "NZ", 
    "admin_name": "Manawatu-Wanganui", 
    "capital": "", 
    "population": "17800", 
    "population_proper": "17800"
  }, 
  {
    "city": "Levin", 
    "lat": "-40.6219", 
    "lng": "175.2867", 
    "country": "New Zealand", 
    "iso2": "NZ", 
    "admin_name": "Manawatu-Wanganui", 
    "capital": "", 
    "population": "17670", 
    "population_proper": "17670"
  }, 
  {
    "city": "Rolleston", 
    "lat": "-43.5833", 
    "lng": "172.3833", 
    "country": "New Zealand", 
    "iso2": "NZ", 
    "admin_name": "Canterbury", 
    "capital": "", 
    "population": "16350", 
    "population_proper": "16350"
  }, 
  {
    "city": "Whakatane", 
    "lat": "-37.9600", 
    "lng": "176.9800", 
    "country": "New Zealand", 
    "iso2": "NZ", 
    "admin_name": "Bay of Plenty", 
    "capital": "admin", 
    "population": "15795", 
    "population_proper": "15795"
  }, 
  {
    "city": "Richmond", 
    "lat": "-41.3333", 
    "lng": "173.1833", 
    "country": "New Zealand", 
    "iso2": "NZ", 
    "admin_name": "Tasman", 
    "capital": "admin", 
    "population": "15000", 
    "population_proper": "15000"
  }, 
  {
    "city": "Havelock North", 
    "lat": "-39.6667", 
    "lng": "176.8833", 
    "country": "New Zealand", 
    "iso2": "NZ", 
    "admin_name": "Hawke’s Bay", 
    "capital": "", 
    "population": "13950", 
    "population_proper": "13950"
  }, 
  {
    "city": "Tokoroa", 
    "lat": "-38.2167", 
    "lng": "175.8667", 
    "country": "New Zealand", 
    "iso2": "NZ", 
    "admin_name": "Waikato", 
    "capital": "", 
    "population": "13572", 
    "population_proper": "13572"
  }, 
  {
    "city": "Mosgiel", 
    "lat": "-45.8750", 
    "lng": "170.3486", 
    "country": "New Zealand", 
    "iso2": "NZ", 
    "admin_name": "Otago", 
    "capital": "", 
    "population": "13400", 
    "population_proper": "13400"
  }, 
  {
    "city": "Te Awamutu", 
    "lat": "-38.0167", 
    "lng": "175.3167", 
    "country": "New Zealand", 
    "iso2": "NZ", 
    "admin_name": "Waikato", 
    "capital": "", 
    "population": "12195", 
    "population_proper": "12195"
  }, 
  {
    "city": "Waikanae", 
    "lat": "-40.8750", 
    "lng": "175.0639", 
    "country": "New Zealand", 
    "iso2": "NZ", 
    "admin_name": "Wellington", 
    "capital": "", 
    "population": "12100", 
    "population_proper": "12100"
  }, 
  {
    "city": "Hawera", 
    "lat": "-39.5933", 
    "lng": "174.2783", 
    "country": "New Zealand", 
    "iso2": "NZ", 
    "admin_name": "Taranaki", 
    "capital": "", 
    "population": "9792", 
    "population_proper": "9792"
  }, 
  {
    "city": "Waiuku", 
    "lat": "-37.2490", 
    "lng": "174.7300", 
    "country": "New Zealand", 
    "iso2": "NZ", 
    "admin_name": "Auckland", 
    "capital": "", 
    "population": "9171", 
    "population_proper": "9171"
  }, 
  {
    "city": "Paraparaumu Beach", 
    "lat": "-40.8938", 
    "lng": "174.9794", 
    "country": "New Zealand", 
    "iso2": "NZ", 
    "admin_name": "Wellington", 
    "capital": "", 
    "population": "9087", 
    "population_proper": "9087"
  }, 
  {
    "city": "Wanaka", 
    "lat": "-44.7000", 
    "lng": "169.1500", 
    "country": "New Zealand", 
    "iso2": "NZ", 
    "admin_name": "Otago", 
    "capital": "", 
    "population": "8900", 
    "population_proper": "8900"
  }, 
  {
    "city": "Te Puke", 
    "lat": "-37.7667", 
    "lng": "176.3167", 
    "country": "New Zealand", 
    "iso2": "NZ", 
    "admin_name": "Bay of Plenty", 
    "capital": "", 
    "population": "8230", 
    "population_proper": "8230"
  }, 
  {
    "city": "Greymouth", 
    "lat": "-42.4500", 
    "lng": "171.2075", 
    "country": "New Zealand", 
    "iso2": "NZ", 
    "admin_name": "West Coast", 
    "capital": "admin", 
    "population": "7965", 
    "population_proper": "7965"
  }, 
  {
    "city": "Matamata", 
    "lat": "-37.8167", 
    "lng": "175.7667", 
    "country": "New Zealand", 
    "iso2": "NZ", 
    "admin_name": "Waikato", 
    "capital": "", 
    "population": "7806", 
    "population_proper": "7806"
  }, 
  {
    "city": "Thames", 
    "lat": "-37.1383", 
    "lng": "175.5375", 
    "country": "New Zealand", 
    "iso2": "NZ", 
    "admin_name": "Waikato", 
    "capital": "", 
    "population": "7293", 
    "population_proper": "7293"
  }, 
  {
    "city": "Kawerau", 
    "lat": "-38.1000", 
    "lng": "176.7000", 
    "country": "New Zealand", 
    "iso2": "NZ", 
    "admin_name": "Bay of Plenty", 
    "capital": "", 
    "population": "7080", 
    "population_proper": "7080"
  }, 
  {
    "city": "Kerikeri", 
    "lat": "-35.2244", 
    "lng": "173.9514", 
    "country": "New Zealand", 
    "iso2": "NZ", 
    "admin_name": "Northland", 
    "capital": "", 
    "population": "6960", 
    "population_proper": "6960"
  }, 
  {
    "city": "Waitara", 
    "lat": "-38.9958", 
    "lng": "174.2331", 
    "country": "New Zealand", 
    "iso2": "NZ", 
    "admin_name": "Taranaki", 
    "capital": "", 
    "population": "6915", 
    "population_proper": "6915"
  }, 
  {
    "city": "Ngaruawahia", 
    "lat": "-37.6667", 
    "lng": "175.1500", 
    "country": "New Zealand", 
    "iso2": "NZ", 
    "admin_name": "Waikato", 
    "capital": "", 
    "population": "6580", 
    "population_proper": "6580"
  }, 
  {
    "city": "Mount Maunganui", 
    "lat": "-37.6598", 
    "lng": "176.2148", 
    "country": "New Zealand", 
    "iso2": "NZ", 
    "admin_name": "Bay of Plenty", 
    "capital": "", 
    "population": "6510", 
    "population_proper": "6510"
  }, 
  {
    "city": "Lincoln", 
    "lat": "-43.6500", 
    "lng": "172.4833", 
    "country": "New Zealand", 
    "iso2": "NZ", 
    "admin_name": "Canterbury", 
    "capital": "", 
    "population": "6030", 
    "population_proper": "6030"
  }, 
  {
    "city": "Kaitaia", 
    "lat": "-35.1125", 
    "lng": "173.2628", 
    "country": "New Zealand", 
    "iso2": "NZ", 
    "admin_name": "Northland", 
    "capital": "", 
    "population": "5868", 
    "population_proper": "5868"
  }, 
  {
    "city": "Stratford", 
    "lat": "-39.3333", 
    "lng": "174.2833", 
    "country": "New Zealand", 
    "iso2": "NZ", 
    "admin_name": "Taranaki", 
    "capital": "admin", 
    "population": "5740", 
    "population_proper": "5740"
  }, 
  {
    "city": "Alexandra", 
    "lat": "-45.2492", 
    "lng": "169.3797", 
    "country": "New Zealand", 
    "iso2": "NZ", 
    "admin_name": "Otago", 
    "capital": "", 
    "population": "5475", 
    "population_proper": "5475"
  }, 
  {
    "city": "Cromwell", 
    "lat": "-45.0459", 
    "lng": "169.1956", 
    "country": "New Zealand", 
    "iso2": "NZ", 
    "admin_name": "Otago", 
    "capital": "", 
    "population": "5440", 
    "population_proper": "5440"
  }, 
  {
    "city": "Warkworth", 
    "lat": "-36.4000", 
    "lng": "174.6667", 
    "country": "New Zealand", 
    "iso2": "NZ", 
    "admin_name": "Auckland", 
    "capital": "", 
    "population": "5320", 
    "population_proper": "5320"
  }, 
  {
    "city": "Waihi", 
    "lat": "-37.3833", 
    "lng": "175.8333", 
    "country": "New Zealand", 
    "iso2": "NZ", 
    "admin_name": "Waikato", 
    "capital": "", 
    "population": "5310", 
    "population_proper": "5310"
  }, 
  {
    "city": "Raumati Beach", 
    "lat": "-40.9187", 
    "lng": "174.9811", 
    "country": "New Zealand", 
    "iso2": "NZ", 
    "admin_name": "Wellington", 
    "capital": "", 
    "population": "5241", 
    "population_proper": "5241"
  }, 
  {
    "city": "Marton", 
    "lat": "-40.0692", 
    "lng": "175.3783", 
    "country": "New Zealand", 
    "iso2": "NZ", 
    "admin_name": "Manawatu-Wanganui", 
    "capital": "", 
    "population": "5200", 
    "population_proper": "5200"
  }, 
  {
    "city": "Whitianga", 
    "lat": "-36.8333", 
    "lng": "175.7000", 
    "country": "New Zealand", 
    "iso2": "NZ", 
    "admin_name": "Waikato", 
    "capital": "", 
    "population": "5130", 
    "population_proper": "5130"
  }, 
  {
    "city": "Tuakau", 
    "lat": "-37.2667", 
    "lng": "174.9500", 
    "country": "New Zealand", 
    "iso2": "NZ", 
    "admin_name": "Waikato", 
    "capital": "", 
    "population": "5016", 
    "population_proper": "5016"
  }, 
  {
    "city": "Dargaville", 
    "lat": "-35.9333", 
    "lng": "173.8833", 
    "country": "New Zealand", 
    "iso2": "NZ", 
    "admin_name": "Northland", 
    "capital": "", 
    "population": "4794", 
    "population_proper": "4794"
  }, 
  {
    "city": "Katikati", 
    "lat": "-37.5500", 
    "lng": "175.9167", 
    "country": "New Zealand", 
    "iso2": "NZ", 
    "admin_name": "Bay of Plenty", 
    "capital": "", 
    "population": "4750", 
    "population_proper": "4750"
  }, 
  {
    "city": "Westport", 
    "lat": "-41.7581", 
    "lng": "171.6022", 
    "country": "New Zealand", 
    "iso2": "NZ", 
    "admin_name": "West Coast", 
    "capital": "", 
    "population": "4660", 
    "population_proper": "4660"
  }, 
  {
    "city": "Tauwhare", 
    "lat": "-37.7698", 
    "lng": "175.4592", 
    "country": "New Zealand", 
    "iso2": "NZ", 
    "admin_name": "Waikato", 
    "capital": "", 
    "population": "4623", 
    "population_proper": "4623"
  }, 
  {
    "city": "Te Aroha", 
    "lat": "-37.5333", 
    "lng": "175.7167", 
    "country": "New Zealand", 
    "iso2": "NZ", 
    "admin_name": "Waikato", 
    "capital": "", 
    "population": "4470", 
    "population_proper": "4470"
  }, 
  {
    "city": "Kaikohe", 
    "lat": "-35.4075", 
    "lng": "173.7997", 
    "country": "New Zealand", 
    "iso2": "NZ", 
    "admin_name": "Northland", 
    "capital": "", 
    "population": "4437", 
    "population_proper": "4437"
  }, 
  {
    "city": "Prebbleton", 
    "lat": "-43.5783", 
    "lng": "172.5133", 
    "country": "New Zealand", 
    "iso2": "NZ", 
    "admin_name": "Canterbury", 
    "capital": "", 
    "population": "4350", 
    "population_proper": "4350"
  }, 
  {
    "city": "Paeroa", 
    "lat": "-37.3750", 
    "lng": "175.6667", 
    "country": "New Zealand", 
    "iso2": "NZ", 
    "admin_name": "Waikato", 
    "capital": "", 
    "population": "4269", 
    "population_proper": "4269"
  }, 
  {
    "city": "Whangamata", 
    "lat": "-37.2000", 
    "lng": "175.8667", 
    "country": "New Zealand", 
    "iso2": "NZ", 
    "admin_name": "Waikato", 
    "capital": "", 
    "population": "4060", 
    "population_proper": "4060"
  }, 
  {
    "city": "Balclutha", 
    "lat": "-46.2333", 
    "lng": "169.7500", 
    "country": "New Zealand", 
    "iso2": "NZ", 
    "admin_name": "Otago", 
    "capital": "", 
    "population": "4060", 
    "population_proper": "4060"
  }, 
  {
    "city": "Snells Beach", 
    "lat": "-36.4222", 
    "lng": "174.7275", 
    "country": "New Zealand", 
    "iso2": "NZ", 
    "admin_name": "Auckland", 
    "capital": "", 
    "population": "3405", 
    "population_proper": "3405"
  }, 
  {
    "city": "Turangi", 
    "lat": "-38.9889", 
    "lng": "175.8083", 
    "country": "New Zealand", 
    "iso2": "NZ", 
    "admin_name": "Waikato", 
    "capital": "", 
    "population": "3320", 
    "population_proper": "3320"
  }, 
  {
    "city": "Raglan", 
    "lat": "-37.8000", 
    "lng": "174.8833", 
    "country": "New Zealand", 
    "iso2": "NZ", 
    "admin_name": "Waikato", 
    "capital": "", 
    "population": "3279", 
    "population_proper": "3279"
  }, 
  {
    "city": "Foxton", 
    "lat": "-40.4717", 
    "lng": "175.2858", 
    "country": "New Zealand", 
    "iso2": "NZ", 
    "admin_name": "Manawatu-Wanganui", 
    "capital": "", 
    "population": "3130", 
    "population_proper": "3130"
  }, 
  {
    "city": "Darfield", 
    "lat": "-43.4833", 
    "lng": "172.1167", 
    "country": "New Zealand", 
    "iso2": "NZ", 
    "admin_name": "Canterbury", 
    "capital": "", 
    "population": "2960", 
    "population_proper": "2960"
  }, 
  {
    "city": "Ashhurst", 
    "lat": "-40.3000", 
    "lng": "175.7500", 
    "country": "New Zealand", 
    "iso2": "NZ", 
    "admin_name": "Manawatu-Wanganui", 
    "capital": "", 
    "population": "2934", 
    "population_proper": "2934"
  }, 
  {
    "city": "Hokitika", 
    "lat": "-42.7156", 
    "lng": "170.9681", 
    "country": "New Zealand", 
    "iso2": "NZ", 
    "admin_name": "West Coast", 
    "capital": "", 
    "population": "2892", 
    "population_proper": "2892"
  }, 
  {
    "city": "Helensville", 
    "lat": "-36.6797", 
    "lng": "174.4494", 
    "country": "New Zealand", 
    "iso2": "NZ", 
    "admin_name": "Auckland", 
    "capital": "", 
    "population": "2787", 
    "population_proper": "2787"
  }, 
  {
    "city": "Woodend", 
    "lat": "-43.3167", 
    "lng": "172.6667", 
    "country": "New Zealand", 
    "iso2": "NZ", 
    "admin_name": "Canterbury", 
    "capital": "", 
    "population": "2784", 
    "population_proper": "2784"
  }, 
  {
    "city": "Kihikihi", 
    "lat": "-38.0333", 
    "lng": "175.3500", 
    "country": "New Zealand", 
    "iso2": "NZ", 
    "admin_name": "Waikato", 
    "capital": "", 
    "population": "2740", 
    "population_proper": "2740"
  }, 
  {
    "city": "Pahiatua", 
    "lat": "-40.4533", 
    "lng": "175.8408", 
    "country": "New Zealand", 
    "iso2": "NZ", 
    "admin_name": "Manawatu-Wanganui", 
    "capital": "", 
    "population": "2550", 
    "population_proper": "2550"
  }, 
  {
    "city": "Wakefield", 
    "lat": "-41.4000", 
    "lng": "173.0500", 
    "country": "New Zealand", 
    "iso2": "NZ", 
    "admin_name": "Tasman", 
    "capital": "", 
    "population": "2448", 
    "population_proper": "2448"
  }, 
  {
    "city": "Ruakaka", 
    "lat": "-35.9084", 
    "lng": "174.4596", 
    "country": "New Zealand", 
    "iso2": "NZ", 
    "admin_name": "Northland", 
    "capital": "", 
    "population": "2360", 
    "population_proper": "2360"
  }, 
  {
    "city": "Winton", 
    "lat": "-46.1431", 
    "lng": "168.3236", 
    "country": "New Zealand", 
    "iso2": "NZ", 
    "admin_name": "Southland", 
    "capital": "", 
    "population": "2337", 
    "population_proper": "2337"
  }, 
  {
    "city": "Maraetai", 
    "lat": "-36.8810", 
    "lng": "175.0420", 
    "country": "New Zealand", 
    "iso2": "NZ", 
    "admin_name": "Auckland", 
    "capital": "", 
    "population": "2290", 
    "population_proper": "2290"
  }, 
  {
    "city": "Te Anau", 
    "lat": "-45.4167", 
    "lng": "167.7167", 
    "country": "New Zealand", 
    "iso2": "NZ", 
    "admin_name": "Southland", 
    "capital": "", 
    "population": "2250", 
    "population_proper": "2250"
  }, 
  {
    "city": "Clive", 
    "lat": "-39.5833", 
    "lng": "176.9167", 
    "country": "New Zealand", 
    "iso2": "NZ", 
    "admin_name": "Hawke’s Bay", 
    "capital": "", 
    "population": "2210", 
    "population_proper": "2210"
  }, 
  {
    "city": "Oxford", 
    "lat": "-43.3128", 
    "lng": "172.1906", 
    "country": "New Zealand", 
    "iso2": "NZ", 
    "admin_name": "Canterbury", 
    "capital": "", 
    "population": "2200", 
    "population_proper": "2200"
  }, 
  {
    "city": "Pokeno", 
    "lat": "-37.2333", 
    "lng": "175.0167", 
    "country": "New Zealand", 
    "iso2": "NZ", 
    "admin_name": "Waikato", 
    "capital": "", 
    "population": "2170", 
    "population_proper": "2170"
  }, 
  {
    "city": "Milton", 
    "lat": "-46.1167", 
    "lng": "169.9667", 
    "country": "New Zealand", 
    "iso2": "NZ", 
    "admin_name": "Otago", 
    "capital": "", 
    "population": "2100", 
    "population_proper": "2100"
  }, 
  {
    "city": "Waihi Beach", 
    "lat": "-37.4000", 
    "lng": "175.9333", 
    "country": "New Zealand", 
    "iso2": "NZ", 
    "admin_name": "Bay of Plenty", 
    "capital": "", 
    "population": "2100", 
    "population_proper": "2100"
  }, 
  {
    "city": "Brightwater", 
    "lat": "-41.3790", 
    "lng": "173.1140", 
    "country": "New Zealand", 
    "iso2": "NZ", 
    "admin_name": "Tasman", 
    "capital": "", 
    "population": "2090", 
    "population_proper": "2090"
  }, 
  {
    "city": "Leeston", 
    "lat": "-43.7667", 
    "lng": "172.3000", 
    "country": "New Zealand", 
    "iso2": "NZ", 
    "admin_name": "Canterbury", 
    "capital": "", 
    "population": "2070", 
    "population_proper": "2070"
  }, 
  {
    "city": "West Melton", 
    "lat": "-43.5167", 
    "lng": "172.3667", 
    "country": "New Zealand", 
    "iso2": "NZ", 
    "admin_name": "Canterbury", 
    "capital": "", 
    "population": "2060", 
    "population_proper": "2060"
  }, 
  {
    "city": "Waitangi", 
    "lat": "-43.9514", 
    "lng": "-176.5611", 
    "country": "New Zealand", 
    "iso2": "NZ", 
    "admin_name": "Chatham Islands", 
    "capital": "admin", 
    "population": "2018", 
    "population_proper": "2018"
  },
  {
    "city": "Queenstown",
    "lat": "-45.0312",
    "lng": "168.6626",
    "country": "New Zealand",
    "iso2": "NZ",
    "admin_name": "Otago",
    "capital": "",
    "population": "15000",
    "population_proper": "15000"
  }
]